,City,Lat,Lon,Max Temp,Humidity,Cloudiness,Wind Speed,Country,Date
0,Bredasdorp,-34.5322,20.0403,49.06,92,93,5.93,ZA,1659645944
1,Thunder Bay,48.4001,-89.3168,76.91,41,20,6.91,CA,1659645944
2,The Valley,18.217,-63.0578,86.14,66,40,17.27,AI,1659645945
3,Tefé,-3.3542,-64.7114,84.31,74,75,3.44,BR,1659645945
4,Sitka,57.0531,-135.33,60.69,77,100,5.75,US,1659645945
5,George Town,5.4112,100.3354,80.89,90,20,0,MY,1659645692
6,Kapaa,22.0752,-159.319,84.11,71,20,9.22,US,1659645666
7,Rikitea,-23.1203,-134.9692,70.93,70,96,19.35,PF,1659645946
8,Punta Arenas,-53.15,-70.9167,42.82,87,75,4.61,CL,1659645946
9,Nakhon Thai,17.1006,100.8374,73.49,95,100,0.83,TH,1659645946
10,Mahébourg,-20.4081,57.7,70.09,73,20,12.66,MU,1659645947
11,Cape Town,-33.9258,18.4232,55.11,88,20,9.22,ZA,1659645767
12,São Gabriel da Cachoeira,-0.1303,-67.0892,79.95,90,96,0.96,BR,1659645947
13,Jamestown,42.097,-79.2353,85.05,57,0,10,US,1659645947
14,Airai,-8.9266,125.4092,55.13,79,13,2.33,TL,1659645948
15,Dikson,73.5069,80.5464,44.13,100,100,9.89,RU,1659645948
16,Bambous Virieux,-20.3428,57.7575,70.05,73,20,12.66,MU,1659645948
17,Barrow,71.2906,-156.7887,56.32,62,92,15.61,US,1659645847
18,Vaini,-21.2,-175.2,77.16,83,75,6.91,TO,1659645949
19,Fujin,47.26,132.0322,72.03,90,100,10.2,CN,1659645949
20,Isangel,-19.55,169.2667,77.13,81,1,4.97,VU,1659645949
21,Palekastro,35.2,26.25,75.92,71,0,14.83,GR,1659645731
22,Krasnosel'kup,65.7,82.4667,56.98,64,61,9.82,RU,1659645950
23,Bay Roberts,47.5999,-53.2648,80.51,61,99,8.01,CA,1659645950
24,Seminole,28.7086,-81.2081,96.19,61,20,13.8,US,1659645951
25,Atuona,-9.8,-139.0333,77.49,71,17,16.93,PF,1659645663
26,Ushuaia,-54.8,-68.3,42.46,65,75,3.44,AR,1659645951
27,Saint-Leu,-21.15,55.2833,66.31,78,63,3.15,RE,1659645952
28,Chokurdakh,70.6333,147.9167,45.57,69,100,14.34,RU,1659645952
29,Te Anau,-45.4167,167.7167,49.06,79,100,10.78,NZ,1659645952
30,Nirmāli,26.3167,86.5833,81.48,83,90,6.02,IN,1659645953
31,Penzance,50.1186,-5.5371,59.68,64,3,15.48,GB,1659645953
32,Mossamedes,-15.1961,12.1522,61.68,83,0,6.91,AO,1659645953
33,Bubaque,11.2833,-15.8333,79.9,81,100,12.15,GW,1659645423
34,Dzilam González,21.2833,-88.9333,83.71,69,64,9.73,MX,1659645954
35,Kloulklubed,7.0419,134.2556,73.9,73,100,8.61,PW,1659645954
36,Bethel,41.3712,-73.414,96.35,55,0,9.22,US,1659645954
37,Kasempa,-13.4584,25.8338,62.15,39,0,5.39,ZM,1659645955
38,Chui,-33.6971,-53.4616,52.23,95,100,15.3,UY,1659645955
39,Kinsale,51.7075,-8.5306,57.24,67,40,12.66,IE,1659645955
40,Carinhanha,-14.3047,-43.765,81.7,31,1,3.18,BR,1659645956
41,Krugersdorp,-26.0858,27.7752,53.62,52,0,4.09,ZA,1659645956
42,Okhotsk,59.3833,143.3,57.65,92,100,5.26,RU,1659645956
43,Roald,62.5833,6.1333,57.76,93,75,4.61,NO,1659645957
44,Vanimo,-2.6741,141.3028,76.3,88,100,3.83,PG,1659645957
45,Arraial do Cabo,-22.9661,-42.0278,75.16,78,0,9.22,BR,1659645957
46,Busselton,-33.65,115.3333,51.76,74,100,5.61,AU,1659645958
47,Hermanus,-34.4187,19.2345,48.79,78,98,6.42,ZA,1659645958
48,Flin Flon,54.7682,-101.865,66.04,59,100,8.05,CA,1659645958
49,Nelson,-41.2833,173.2833,41.29,93,4,7,NZ,1659645959
50,Torbay,47.6666,-52.7314,79.75,72,75,13.8,CA,1659645429
51,Port Elizabeth,-33.918,25.5701,57.24,84,41,4.25,ZA,1659645959
52,Banda Aceh,5.5577,95.3222,79.65,72,100,9.93,ID,1659645959
53,Hofn,64.2539,-15.2082,50.88,69,51,11.07,IS,1659645960
54,Merauke,-8.4667,140.3333,75.94,92,76,8.08,ID,1659645487
55,Yangi Marg`ilon,40.4272,71.7189,76.53,34,0,2.73,UZ,1659645960
56,Hobart,-42.8794,147.3294,45.27,87,0,3.44,AU,1659645960
57,Southbridge,42.0751,-72.0334,96.37,54,6,1.01,US,1659645961
58,Urengoy,65.9667,78.3667,64.44,55,99,7.47,RU,1659645961
59,Avarua,-21.2078,-159.775,77.05,73,75,18.41,CK,1659645962
60,Haines Junction,60.7522,-137.5108,69.75,60,100,2.3,CA,1659645962
61,Arrondissement de Pontivy,48,-3,64.27,65,33,12.91,FR,1659645962
62,Albany,42.6001,-73.9662,97.65,52,35,1.01,US,1659645919
63,Bandarbeyla,9.4942,50.8122,77.27,76,45,30.2,SO,1659645963
64,Shushenskoye,53.325,91.9356,57.65,68,100,3.13,RU,1659645963
65,Portland,45.5234,-122.6762,76.64,56,75,6.91,US,1659645725
66,Clyde River,70.4692,-68.5914,44.83,87,75,19.57,CA,1659645672
67,Atlantic Beach,30.3344,-81.3987,93.13,68,20,11.5,US,1659645964
68,Severo-Kuril'sk,50.6789,156.125,54.63,83,74,11.27,RU,1659645964
69,Igarka,67.4667,86.5833,55.8,70,96,4.23,RU,1659645965
70,Mataura,-46.1927,168.8643,57.47,89,100,5.32,NZ,1659645965
71,Deputatsky,69.3,139.9,44.17,64,7,0.43,RU,1659645966
72,Ribeira Grande,38.5167,-28.7,77.4,88,40,2.3,PT,1659645966
73,Praia,14.9215,-23.5087,79.34,73,75,12.66,CV,1659645337
74,Narsaq,60.9167,-46.05,52.02,86,95,3.27,GL,1659645966
75,Wagar,16.1525,36.2032,90.99,43,88,6.78,SD,1659645967
76,Zhezkazgan,47.8043,67.7144,66.18,76,24,12.77,KZ,1659645967
77,Biloela,-24.4167,150.5,58.01,96,3,4.9,AU,1659645967
78,Zavodouspenskoye,56.8626,65.0155,57.49,81,90,0.92,RU,1659645968
79,Taltal,-25.4,-70.4833,62.76,63,90,5.79,CL,1659645689
80,West Wendover,40.7391,-114.0733,92.41,22,0,10.36,US,1659645968
81,Tasiilaq,65.6145,-37.6368,41.16,84,100,1.68,GL,1659645969
82,Żnin,52.8496,17.7199,78.64,53,69,10.56,PL,1659645969
83,Dicabisagan,17.0818,122.4157,78.06,91,100,1.63,PH,1659645969
84,Ozark,37.0209,-93.206,91.33,61,8,1.01,US,1659645970
85,Tarazona,41.9,-1.7333,84.02,63,43,8.01,ES,1659645970
86,Kahului,20.8947,-156.47,84.22,61,40,11.5,US,1659645971
87,Skibbereen,51.55,-9.2667,56.1,76,100,10.76,IE,1659645971
88,Vila Franca do Campo,37.7167,-25.4333,75.61,90,86,5.68,PT,1659645971
89,Northam,51.0333,-4.2167,60.62,65,2,11.1,GB,1659645972
90,Hisar,29.1667,75.7167,83.12,78,97,6.26,IN,1659645972
91,Pemba,-12.974,40.5178,74.1,83,20,3.44,MZ,1659645973
92,Richards Bay,-28.783,32.0377,66.15,85,12,9.44,ZA,1659645973
93,Carnarvon,-24.8667,113.6333,59.5,59,57,14.61,AU,1659645974
94,Muros,42.7762,-9.0603,71.69,74,77,18.57,ES,1659645974
95,Fortuna,40.5982,-124.1573,74.93,71,20,14.97,US,1659645428
96,Hithadhoo,-0.6,73.0833,81.03,70,99,11.52,MV,1659645975
97,Hasaki,35.7333,140.8333,72.28,91,100,16.42,JP,1659645975
98,Sibolga,1.7427,98.7792,73.2,87,100,5.64,ID,1659645975
99,Kenai,60.5544,-151.2583,66.02,78,75,6.91,US,1659645976
100,Charlestown,-32.95,151.6667,62.69,91,98,1.01,AU,1659645896
101,Oro Valley,32.3909,-110.9665,95.04,43,8,4,US,1659645976
102,Puerto Ayora,-0.7393,-90.3518,76.96,82,53,7,EC,1659645977
103,Inta,66.0317,60.1659,56.01,69,40,8.7,RU,1659645977
104,Cherskiy,68.75,161.3,44.1,85,100,8.21,RU,1659645978
105,Sur,22.5667,59.5289,84.92,69,98,13.24,OM,1659645507
106,Lorengau,-2.0226,147.2712,81.55,80,100,8.99,PG,1659645560
107,Zyryanka,65.75,150.85,48.45,88,100,9.62,RU,1659645978
108,Kimbe,-5.5502,150.1429,75.49,87,64,3.8,PG,1659645979
109,Halifax,44.6453,-63.5724,84.09,80,75,14.97,CA,1659645899
110,Mayo,38.8876,-76.5119,97.36,67,0,4,US,1659645979
111,Malartic,48.1335,-78.1328,72.01,62,44,3.8,CA,1659645980
112,Lompoc,34.6391,-120.4579,94.78,54,0,11.5,US,1659645980
113,Pevek,69.7008,170.3133,36.79,95,100,6.91,RU,1659645980
114,Djibouti,11.5,42.5,90.21,38,8,3.91,DJ,1659645981
115,Kariba,-16.5167,28.8,66.85,51,0,3.06,ZW,1659645981
116,Knysna,-34.0363,23.0471,55.35,88,100,2.89,ZA,1659645981
117,Charlton,42.1357,-71.9701,94.82,52,0,9.22,US,1659645982
118,Mtinko,-4.55,34.85,59.58,68,32,12.46,TZ,1659645982
119,Illintsi,49.1048,29.2177,64.09,89,7,7.31,UA,1659645982
120,Brookings,44.3114,-96.7984,84.54,42,0,12.66,US,1659645900
121,Longyearbyen,78.2186,15.6401,46.53,95,100,0.67,SJ,1659645748
122,Bluff,-46.6,168.3333,57.79,65,100,21.79,NZ,1659645983
123,Hong Kong,22.2855,114.1577,78.85,95,100,1.01,HK,1659645983
124,Kuybyshevo,47.8123,38.9073,70.16,81,22,8.01,RU,1659645984
125,Governador Valadares,-18.8511,-41.9494,76.3,41,83,2.01,BR,1659645967
126,Gisborne,-38.6533,178.0042,51.76,67,0,5.84,NZ,1659645985
127,Hilo,19.7297,-155.09,88.29,70,0,8.01,US,1659645985
128,East London,-33.0153,27.9116,64.31,71,100,4.16,ZA,1659645985
129,Dalvik,65.9702,-18.5286,49.93,86,99,5.5,IS,1659645986
130,Mastic Beach,40.7668,-72.8521,92.16,67,0,12.66,US,1659645694
131,Hervey Bay,-25.2986,152.8535,65.01,93,65,5.99,AU,1659645986
132,Lagoa,39.05,-27.9833,75.7,80,2,3.36,PT,1659645986
133,Eidfjord,60.4675,7.0719,52.43,97,67,5.66,NO,1659645987
134,Guangyuan,32.442,105.823,74.66,93,3,1.99,CN,1659645987
135,La Ronge,55.1001,-105.2842,62.85,59,100,14.97,CA,1659645987
136,Port Keats,-14.25,129.55,72.05,93,49,6.08,AU,1659645988
137,Provideniya,64.3833,-173.3,51.91,93,100,4.47,RU,1659645988
138,Khani,41.9563,42.9566,67.57,98,85,1.86,GE,1659645988
139,Departamento de Maldonado,-34.6667,-54.9167,49.39,89,100,16.44,UY,1659645719
140,Poum,-20.2333,164.0167,74.16,84,2,8.63,NC,1659645989
141,Makokou,0.5738,12.8642,75.85,67,100,2.44,GA,1659645864
142,Katherine,-14.4667,132.2667,71.92,73,76,0,AU,1659645990
143,Gamba,-2.65,10,69.44,89,22,8.95,GA,1659645990
144,Valente,-11.4122,-39.4619,74.79,65,99,10.89,BR,1659645990
145,Caravelas,-17.7125,-39.2481,69.89,77,20,5.55,BR,1659645441
146,Prome,18.8167,95.2167,76.01,94,100,7.09,MM,1659645991
147,Talaya,61.3833,152.75,65.19,74,50,1.88,RU,1659645991
148,Castro,-24.7911,-50.0119,68.52,50,81,5.7,BR,1659645991
149,Esperance,-33.8667,121.9,54.57,75,92,19.26,AU,1659645992
150,Yellowknife,62.456,-114.3525,64.92,45,40,9.22,CA,1659645695
151,Diamantino,-14.4086,-56.4461,91.58,19,4,2.64,BR,1659645842
152,Saldanha,-33.0117,17.9442,46.45,83,55,7.18,ZA,1659645992
153,Hobyo,5.3505,48.5268,76.3,85,76,23.13,SO,1659645993
154,Umeå,63.8284,20.2597,60.73,88,0,6.91,SE,1659645993
155,Boulder,40.0833,-105.3505,92.73,24,0,9.22,US,1659645993
156,Adrar,20.5022,-10.0711,97.5,26,1,18.45,MR,1659645994
157,Butaritari,3.0707,172.7902,81.41,76,81,11.21,KI,1659645994
158,Posse,-14.0931,-46.3694,77.5,30,7,5.66,BR,1659645994
159,Chifeng,42.2683,118.9636,70.74,81,0,7.23,CN,1659645995
160,San Patricio,28.017,-97.5169,100.17,43,21,20.54,US,1659645995
161,Puerto Cabezas,14.0351,-83.3888,78.76,94,40,11.5,NI,1659645996
162,Palmer,42.1584,-72.3287,96.66,49,40,11.5,US,1659645996
163,Liverpool,53.4106,-2.9779,60.62,69,40,9.22,GB,1659645996
164,Port Alfred,-33.5906,26.891,59.63,82,49,6.08,ZA,1659645997
165,Dingle,10.9995,122.6711,75.65,92,100,1.66,PH,1659645997
166,Tuktoyaktuk,69.4541,-133.0374,66.2,45,75,6.91,CA,1659645997
167,Boa Vista,2.8197,-60.6733,89.58,51,40,9.22,BR,1659645805
168,Tautira,-17.7333,-149.15,76.24,80,96,27.18,PF,1659645563
169,Waingapu,-9.6567,120.2641,69.91,78,5,4.41,ID,1659645998
170,Ust-Tsilma,65.441,52.1498,59.31,69,100,5.17,RU,1659645998
171,Bima,-8.4667,118.7167,71.46,93,17,3.87,ID,1659645999
172,Saint-Philippe,-21.3585,55.7679,66.22,79,32,11.05,RE,1659645999
173,Cururupu,-1.8283,-44.8683,76.73,88,29,3.78,BR,1659645999
174,Berezniki,59.4152,56.8124,58.28,82,84,2.44,RU,1659646000
175,Mīzan Teferī,6.9833,35.5833,62.19,93,98,2.17,ET,1659646000
176,Hirara,24.8,125.2833,84.81,72,32,6.15,JP,1659646000
177,Talara,-4.5772,-81.2719,79.56,61,0,11.5,PE,1659645422
178,Kavaratti,10.5669,72.642,78.75,85,100,31.36,IN,1659646001
179,Laguna,38.421,-121.4238,101.01,22,0,10.36,US,1659646001
180,Pedernales,18.0384,-71.744,89.29,52,94,5.1,DO,1659646002
181,Kununurra,-15.7667,128.7333,64.38,94,74,0,AU,1659646002
182,Whitehorse,60.7161,-135.0538,69.1,70,75,9.22,CA,1659646002
183,Punta Cardon,11.6581,-70.215,83.28,69,65,32.44,VE,1659646003
184,Uthal,25.8072,66.6219,82.2,86,48,6.82,PK,1659646003
185,Nizhnyaya Tavda,57.6731,66.1725,58.95,84,94,3.2,RU,1659646003
186,Port Blair,11.6667,92.75,81.28,80,99,21.27,IN,1659646004
187,Atambua,-9.1061,124.8925,67.64,89,15,4.16,ID,1659646004
188,Lebu,-37.6167,-73.65,50.7,66,99,5.3,CL,1659646004
189,Bengkulu,-3.8004,102.2655,73.72,90,97,3.51,ID,1659646005
190,Nanortalik,60.1432,-45.2371,46.51,88,100,4.54,GL,1659646005
191,Zaranj,30.9667,61.8833,91.36,17,0,27.34,AF,1659646005
192,Souillac,-20.5167,57.5167,70.18,73,20,12.66,MU,1659646006
193,Leningradskiy,69.3833,178.4167,37.08,96,100,8.81,RU,1659645570
194,Berbera,10.4396,45.0143,91.72,38,46,20.31,SO,1659646006
195,Laas,46.6166,10.7002,76.08,82,56,2.13,IT,1659645557
196,Nikolskoye,59.7035,30.7861,67.91,68,18,4.63,RU,1659646006
197,Srednekolymsk,67.45,153.6833,50.76,54,20,9.08,RU,1659646007
198,Constitución,-35.3333,-72.4167,54.23,77,100,10.13,CL,1659645957
199,New Norfolk,-42.7826,147.0587,44.91,67,62,2.51,AU,1659646007
200,Kodinsk,58.6881,99.1844,47.61,98,92,3.04,RU,1659646007
201,Saint Anthony,45.0205,-93.218,88.14,39,0,6.91,US,1659645920
202,Mykolayivka,47.5414,30.7561,72.3,65,58,7.9,UA,1659646008
203,Hamilton,39.1834,-84.5333,84.04,82,40,5.75,US,1659645755
204,Kathu,7.9178,98.3332,85.75,76,100,7,TH,1659646008
205,Auki,-8.7676,160.7034,80.35,77,77,3.71,SB,1659646009
206,Bouna,9.2667,-3,73.83,80,100,4.61,CI,1659646009
207,Yulara,-25.2406,130.9889,48.07,46,0,8.75,AU,1659646009
208,Bathsheba,13.2167,-59.5167,86.61,85,20,20.71,BB,1659646010
209,Upernavik,72.7868,-56.1549,44.62,74,100,11.25,GL,1659646010
210,Havøysund,70.9963,24.6622,57.43,90,80,14.67,NO,1659646010
211,Chokwé,-24.5333,32.9833,69.78,54,22,5.57,MZ,1659646011
212,Kanniyākumāri,8.0833,77.5667,77.16,85,100,24.34,IN,1659646011
213,Husavik,66.0449,-17.3389,45.64,85,81,7.56,IS,1659646011
214,Williston,48.147,-103.618,100.04,17,2,4,US,1659645542
215,Vila,42.0304,-8.1588,67.08,77,43,6.29,PT,1659646012
216,Maceió,-9.6658,-35.7353,78.24,78,75,9.22,BR,1659646012
217,Lālmohan,22.3384,90.7419,84.02,80,100,9.13,BD,1659646012
218,Naze,28.3667,129.4833,77.92,84,100,8.14,JP,1659645575
219,Victoria Point,-27.5833,153.3,62.91,93,3,1.99,AU,1659646013
220,Ulety,51.3572,112.4849,53.2,82,12,5.77,RU,1659646013
221,Chara,56.9064,118.2631,51.93,92,100,5.21,RU,1659646014
222,San Rafael,-34.6177,-68.3301,62.17,34,7,9.82,AR,1659646014
223,Tondano,1.3038,124.9112,68.11,91,98,2.77,ID,1659646014
224,Mount Gambier,-37.8333,140.7667,44.73,96,92,6.49,AU,1659646015
225,College,64.8569,-147.8028,73.99,52,20,5.75,US,1659646015
226,Ancud,-41.8697,-73.8203,44.22,67,100,3.8,CL,1659646015
227,Ust'-Kulom,61.6864,53.6902,59.81,85,45,3.51,RU,1659646016
228,Thompson,55.7435,-97.8558,68.16,40,75,5.75,CA,1659645922
229,Mocuba,-16.8392,36.9856,63.84,91,0,2.21,MZ,1659646016
230,Chake Chake,-5.2459,39.7666,71.29,83,3,7.45,TZ,1659646016
231,Mehamn,71.0357,27.8492,62.55,72,0,9.22,NO,1659646017
232,Imeni Poliny Osipenko,52.4201,136.4853,59.83,93,95,1.16,RU,1659646017
233,Guerrero Negro,27.9769,-114.0611,80.31,54,1,16.28,MX,1659645977
234,Geraldton,-28.7667,114.6,46.81,100,83,8.05,AU,1659645443
235,Klisura,42.7,24.45,64.87,50,38,0.76,BG,1659646017
236,Simao,22.7886,100.9748,65.68,98,99,0.6,CN,1659646018
237,Olafsvik,64.8945,-23.7142,50.25,71,2,10.49,IS,1659646018
238,Severodvinsk,64.5635,39.8302,68.11,75,92,9.69,RU,1659646018
239,San Andrés,12.5847,-81.7006,77.02,88,100,11.5,CO,1659646019
240,Baykit,61.67,96.37,43.56,95,100,3.33,RU,1659646019
241,Ürümqi,43.801,87.6005,76.15,38,0,4.47,CN,1659646019
242,Ambilobe,-13.2,49.05,65.08,74,3,4.61,MG,1659646020
243,Ixtapa,20.7,-105.2,91.22,62,40,9.22,MX,1659645764
244,Gravdal,68.1214,13.5031,53.49,87,75,13.8,NO,1659646020
245,Tazovsky,67.4667,78.7,53.85,82,100,11.34,RU,1659645488
246,Sampit,-2.5333,112.95,72.28,98,69,1.92,ID,1659646021
247,Codrington,-38.2667,141.9667,47.53,92,87,11.77,AU,1659646021
248,Turukhansk,65.8167,87.9833,49.91,79,41,2.33,RU,1659646021
249,Aksu,41.1231,80.2644,77.5,37,16,7.9,CN,1659646022
250,Sørkjosen,69.8,20.9333,55.4,94,20,3.44,NO,1659646022
251,Mitsamiouli,-11.3847,43.2844,75.51,67,0,6.22,KM,1659646023
252,Svetlyy Yar,48.4748,44.781,78.4,35,86,8.95,RU,1659646023
253,Boa Viagem,-5.1275,-39.7322,72.37,89,47,3.44,BR,1659646023
254,Khatanga,71.9667,102.5,53.24,75,89,5.14,RU,1659646024
255,Manokwari,-0.8667,134.0833,76.98,78,93,2.3,ID,1659646024
256,Bireun,5.203,96.7009,76.23,71,100,4.72,ID,1659646024
257,Vao,-22.6667,167.4833,72.01,84,98,17,NC,1659646025
258,Panguna,-6.3164,155.4848,71.35,88,89,1.72,PG,1659646025
259,Frontera,26.9333,-101.45,100.33,30,74,4,MX,1659646025
260,Esim,4.8699,-2.2405,72.97,80,67,6.22,GH,1659646026
261,Simav,39.0882,28.9777,67.08,75,0,6.96,TR,1659646026
262,Xinzhou,38.4092,112.7333,74.32,71,11,0.38,CN,1659646026
263,Tiksi,71.6872,128.8694,46.51,68,92,0.36,RU,1659646027
264,Udachny,66.4167,112.4,44.46,93,100,10.11,RU,1659646027
265,Kiryat Gat,31.61,34.7642,83.39,100,0,5.1,IL,1659646027
266,San Jerónimo,-11.9472,-75.2829,57.56,57,95,6.85,PE,1659646028
267,Falam,22.9167,93.6833,63.99,97,100,1.97,MM,1659646028
268,Almaznyy,48.0448,40.045,69.53,81,93,12.3,RU,1659646029
269,Tcholliré,8.4022,14.1698,72.37,92,100,3.13,CM,1659646029
270,Vardø,70.3705,31.1107,55.38,88,0,4.61,NO,1659646030
271,Sal Rei,16.1833,-22.9167,76.3,79,60,9.93,CV,1659646030
272,Inyonga,-6.7167,32.0667,66.67,39,77,4,TZ,1659646030
273,Pisco,-13.7,-76.2167,65.01,77,20,10.36,PE,1659646031
274,Egvekinot,66.3167,-179.1667,48.11,84,90,3.2,RU,1659646031
275,Sangar,63.9242,127.4739,62.46,97,99,6.51,RU,1659646031
276,Klaksvík,62.2266,-6.589,49.12,77,97,18.48,FO,1659646032
277,Makakilo City,21.3469,-158.0858,82.15,60,40,9.22,US,1659646032
278,Ponta do Sol,32.6667,-17.1,74.03,79,4,8.08,PT,1659646032
279,Port Augusta,-32.5,137.7667,47.53,75,7,11.61,AU,1659646033
280,Walvis Bay,-22.9575,14.5053,55.09,100,3,10.36,NA,1659646033
281,Berlevåg,70.8578,29.0864,62.6,88,20,0,NO,1659646034
282,Beşikdüzü,41.052,39.2284,78.69,88,51,5.19,TR,1659646034
283,Englehart,47.8169,-79.8664,72.16,60,0,5.75,CA,1659646002
284,Katsuura,35.1333,140.3,73.42,92,100,14.97,JP,1659645446
285,Santa Inês,-3.6667,-45.38,76.89,84,67,1.43,BR,1659646035
286,Minden,52.2833,8.9167,75.97,78,46,6.91,DE,1659646035
287,Barabash,43.2,131.4833,71.85,99,100,2.91,RU,1659646035
288,Bosaso,11.2842,49.1816,91.18,41,41,18.19,SO,1659646036
289,Americus,32.0724,-84.2327,91.53,43,75,4.61,US,1659646036
290,Kapuskasing,49.4169,-82.4331,69.89,49,75,6.91,CA,1659645864
291,Saskylakh,71.9167,114.0833,53.8,70,100,5.17,RU,1659646037
292,Kholodnyy,62.7167,147.95,61.29,81,93,3.94,RU,1659646037
293,Nuuk,64.1835,-51.7216,48.81,76,75,36.82,GL,1659646038
294,Waipawa,-41.4122,175.5153,46.83,84,36,8.19,NZ,1659645811
295,Ketchikan,55.3422,-131.6461,64.87,63,0,9.22,US,1659646038
296,Tuatapere,-46.1333,167.6833,53.56,64,100,9.64,NZ,1659646039
297,Santa Cruz de la Sierra,-17.8,-63.1667,81.86,47,75,16.11,BO,1659645807
298,Sinnamary,5.3833,-52.95,81.77,76,13,10.94,GF,1659646039
299,Marsabit,2.3284,37.9899,63.43,61,63,22.73,KE,1659646039
300,Ostrovnoy,68.0531,39.5131,62.22,86,93,16.35,RU,1659646040
301,Carutapera,-1.195,-46.02,78.01,86,76,7.78,BR,1659646040
302,Mar del Plata,-38.0023,-57.5575,50.09,76,75,10.36,AR,1659646041
303,Tura,25.5198,90.2201,73.99,96,77,2.68,IN,1659646041
304,Lethem,3.3803,-59.7968,84.38,72,87,3.04,GY,1659646041
305,Ilulissat,69.2167,-51.1,44.62,100,100,10.36,GL,1659646042
306,Ossora,59.2353,163.0719,60.69,69,51,1.16,RU,1659646042
307,Broome,42.2506,-75.833,74.25,70,100,6.91,US,1659646042
308,Qaanaaq,77.484,-69.3632,44.98,57,6,3.71,GL,1659646043
309,Tanete,-3.9443,119.7848,71.33,90,22,4,ID,1659646043
310,Izvestkovyy,48.9833,131.55,66.88,97,100,8.75,RU,1659646044
311,Ranong,9.9658,98.6348,79.54,86,100,9.75,TH,1659646044
312,Bonnyville,54.2668,-110.735,60.12,88,100,2.37,CA,1659646044
313,Saint George,37.1041,-113.5841,97.63,30,0,18.41,US,1659645920
314,Kaeo,-35.1,173.7833,51.33,96,5,4.5,NZ,1659646045
315,Nelson Bay,-32.7167,152.15,61,98,94,1.99,AU,1659646045
316,Vostok,46.4856,135.8833,63.18,91,100,3.71,RU,1659645502
317,São Filipe,14.8961,-24.4956,77.11,82,89,8.01,CV,1659646046
318,Cairns,-16.9167,145.7667,70.07,96,62,9.22,AU,1659645815
319,San Jose,37.3394,-121.895,97.92,41,40,10.36,US,1659646027
320,Maumere,-8.6199,122.2111,73.11,79,17,6.73,ID,1659646047
321,Yerbogachën,61.2767,108.0108,50.86,90,100,1.19,RU,1659646047
322,Viedma,-40.8135,-62.9967,47.57,46,43,7.76,AR,1659646047
323,Henties Bay,-22.116,14.2845,53.98,93,9,6.2,NA,1659646048
324,Umba,66.6871,34.3429,57.52,97,83,7.7,RU,1659646048
325,Nikolayevka,53.1257,47.2041,69.33,70,99,5.21,RU,1659646048
326,Bambanglipuro,-7.95,110.2833,71.94,90,46,3.4,ID,1659646049
327,Paamiut,61.994,-49.6678,44.85,90,100,14.85,GL,1659645493
328,Troitskoye,52.9821,84.6757,50.97,78,0,6.96,RU,1659646049
329,Biabou,13.2,-61.1333,84.2,74,75,14.97,VC,1659646049
330,Birjand,32.8663,59.2211,75.67,20,0,11.5,IR,1659646050
331,Salalah,17.0151,54.0924,78.89,94,100,2.3,OM,1659646050
332,Knokke-Heist,51.3333,3.3333,69.17,71,100,3,BE,1659646050
333,Saint Paul Harbor,57.79,-152.4072,60.31,72,20,5.75,US,1659646051
334,Dzhebariki-Khaya,62.2167,135.8,65.28,74,99,1.92,RU,1659646051
335,Gwadar,25.1216,62.3254,80.47,86,37,5.66,PK,1659646051
336,San Policarpo,12.1791,125.5072,76.53,88,100,6.42,PH,1659646052
337,Amahai,-3.3333,128.9167,76.14,89,87,1.7,ID,1659646052
338,Nichinan,31.6,131.3667,78.04,91,63,6.62,JP,1659646052
339,Baykalovo,57.3981,63.7684,59.54,79,77,4.23,RU,1659646053
340,Omboué,-1.5746,9.2618,72.1,75,48,10.16,GA,1659646053
341,Caucaia,-3.7361,-38.6531,80.55,75,40,11.5,BR,1659646053
342,Tourlaville,49.6383,-1.5664,62.02,72,81,4.61,FR,1659646054
343,Bell Ville,-32.6259,-62.6887,64.67,45,0,4.09,AR,1659645936
344,Kushiro,42.975,144.3747,55.74,92,97,5.99,JP,1659646054
345,Timberlake,37.3207,-79.2575,93.38,53,20,8.05,US,1659646055
346,Leeton,-34.5667,146.4,46.31,100,0,5.75,AU,1659646055
347,Aykhal,66,111.5,43.21,96,100,12.71,RU,1659646055
348,Tres Arroyos,-38.3739,-60.2798,50.99,51,1,9.4,AR,1659646056
349,Paraná,-31.732,-60.5238,61.57,54,75,6.06,AR,1659646056
350,Yeppoon,-23.1333,150.7333,60.58,94,2,4,AU,1659645804
351,Acapulco de Juárez,16.8634,-99.8901,86.72,64,16,7.45,MX,1659646056
352,Bonavista,48.6499,-53.1147,64.35,88,100,14.92,CA,1659646057
353,Las Lomas,8.4333,-82.4,83.61,74,40,12.66,PA,1659646057
354,Aksarka,66.5606,67.7975,57.47,77,13,6.06,RU,1659646057
355,Dhārchula,29.85,80.5333,72.82,98,100,0.74,IN,1659646058
356,Menongue,-14.6585,17.691,63.36,38,10,5.12,AO,1659645491
357,Sakakah,29.9697,40.2064,105.37,29,53,2.39,SA,1659646058
358,Minas,-34.3759,-55.2377,48.61,90,100,15.41,UY,1659646060
359,Devils Lake,48.1128,-98.8651,84.31,48,0,23.02,US,1659646060
360,Kamenka,51.3223,42.7678,70.02,61,100,7.52,RU,1659646060
361,Say,13.1007,2.3689,75.99,87,89,7.25,NE,1659646061
362,Acaraú,-2.8856,-40.12,78.48,75,11,16.26,BR,1659646061
363,Itupiranga,-5.1347,-49.3267,95.32,51,56,4.07,BR,1659646061
364,Gonbad-e Kāvūs,37.25,55.1672,82.31,74,0,3.44,IR,1659646062
365,Nieuw Amsterdam,5.8833,-55.0833,80.62,84,20,9.22,SR,1659646062
366,Meulaboh,4.1363,96.1285,76.06,75,100,2.86,ID,1659645555
367,Faya,18.3851,42.4509,66.31,63,100,2.19,SA,1659646062
368,Wellington,-41.2866,174.7756,55.06,88,75,26.46,NZ,1659645913
369,Cayenne,4.9333,-52.3333,86.04,24,0,12.66,GF,1659646063
370,Zemio,5.0314,25.1361,69.44,97,100,3.51,CF,1659645498
371,Priargunsk,50.3691,119.1012,57.94,85,32,8.19,RU,1659646063
372,Talāja,21.35,72.05,83.91,79,100,3.53,IN,1659646063
373,Saint Andrews,34.0454,-81.1293,96.26,49,40,5.75,US,1659646064
374,Kumul,42.8,93.45,88.09,22,91,10.71,CN,1659646064
375,Karratha,-20.7377,116.8463,61.68,45,1,9.95,AU,1659646064
376,Shitanjing,39.2342,106.3439,75.87,68,0,2.33,CN,1659646065
377,Sola,-13.8833,167.55,81.19,72,14,15.99,VU,1659646065
378,Cheney,47.4874,-117.5758,79.81,30,40,25.32,US,1659646042
379,Iqaluit,63.7506,-68.5145,44.33,87,100,4.61,CA,1659646065
380,Mlimba,-8.8,35.8167,66.81,61,5,3.24,TZ,1659646066
381,Emerald,-23.5333,148.1667,56.34,100,40,0,AU,1659646066
382,Ballina,-28.8667,153.5667,61.02,97,1,12.77,AU,1659646066
383,Borovskoy,53.8,64.15,60.49,78,7,6.96,KZ,1659646067
384,Padang,-0.9492,100.3543,76.84,81,100,3.04,ID,1659646067
385,Zhuhai,22.2769,113.5678,80.31,94,40,3.44,CN,1659646067
386,Oddur,4.1213,43.8894,71.74,68,80,18.28,SO,1659646068
387,Coquimbo,-29.9533,-71.3436,60.53,67,0,11.5,CL,1659646068
388,Avera,33.194,-82.5271,94.51,52,75,8.97,US,1659646068
389,Hailey,43.5196,-114.3153,89.8,27,40,14,US,1659645794
390,Faanui,-16.4833,-151.75,77.4,78,44,25.23,PF,1659646069
391,Elverum,60.8819,11.5623,57.15,98,91,4.07,NO,1659646069
392,Menomonie,44.8755,-91.9193,83.73,44,0,5.75,US,1659646070
393,Grand Gaube,-20.0064,57.6608,70.2,76,18,7,MU,1659646070
394,Kochubey,44.3861,46.5825,75.97,48,0,5.91,RU,1659646070
395,Belaya Gora,68.5333,146.4167,49.15,60,100,6.93,RU,1659646070
396,Lüderitz,-26.6481,15.1594,56.34,78,1,11.36,NA,1659646071
397,Ocosingo,17.0667,-92.25,83.53,33,9,6.67,MX,1659646071
398,São João da Barra,-21.6403,-41.0511,77.09,82,49,18.32,BR,1659646072
399,Asău,46.4333,26.4,67.28,78,5,4.68,RO,1659646072
400,Solenzo,12.1833,-4.0833,78.4,79,71,6.71,BF,1659646072
401,Arkhipo-Osipovka,44.37,38.52,71.42,76,0,5.06,RU,1659646073
402,Buritizeiro,-17.3511,-44.9622,77.14,30,16,3.51,BR,1659646073
403,Fairbanks,64.8378,-147.7164,73.09,52,20,5.75,US,1659645902
404,Porto-Novo,6.4965,2.6036,75.02,77,100,7,BJ,1659646073
405,Oudtshoorn,-33.5907,22.2014,46.76,90,100,1.61,ZA,1659646074
406,Conil,44.9673,3.7177,66.09,46,95,5.84,FR,1659646074
407,Koch Bihār,26.3167,89.4333,78.13,86,71,2.01,IN,1659646074
408,Algiers,36.7525,3.042,76.82,83,40,5.75,DZ,1659646075
409,Waddān,29.1614,16.139,88.14,23,0,17.25,LY,1659646075
410,Cutervo,-6.379,-78.8157,56.28,80,91,3.89,PE,1659646075
411,Kilosa,-6.8333,36.9833,65.62,74,25,2.06,TZ,1659646076
412,Hereford,52.0568,-2.7148,63.05,61,71,5.99,GB,1659646076
413,San Cristobal,7.7669,-72.225,82.58,52,45,5.1,VE,1659645918
414,Khandyga,62.6667,135.6,66.13,83,83,1.16,RU,1659646076
415,Limbang,4.75,115,77.11,99,99,2.77,MY,1659646077
416,Ushtobe,45.2514,77.9838,66.7,65,39,2.35,KZ,1659646077
417,Cidreira,-30.1811,-50.2056,68.38,77,47,6.96,BR,1659645494
418,Aklavik,68.2191,-135.0107,73.4,56,20,6.91,CA,1659646078
419,Kaitangata,-46.2817,169.8464,51.21,72,100,9.13,NZ,1659646078
420,Jalu,29.0331,21.5482,84.9,41,0,13.85,LY,1659646078
421,Ahipara,-35.1667,173.1667,54.39,83,0,2.89,NZ,1659646079
422,Butajīra,8.1167,38.3667,58.91,87,52,5.61,ET,1659646079
423,Sakaiminato,35.55,133.2333,78.78,94,75,6.91,JP,1659646079
424,Iquitos,-3.7481,-73.2472,82.44,78,75,3.44,PE,1659646078
425,Altamira,-3.2033,-52.2064,95.09,49,20,3.44,BR,1659645946
426,Chala,-7.5833,31.2667,58.21,46,6,3.38,TZ,1659646080
427,Shestakovo,56.4915,103.96,49.15,96,86,3.4,RU,1659646080
428,Huarmey,-10.0681,-78.1522,68.23,70,47,12.44,PE,1659646081
429,Wanning,18.8003,110.3967,80.11,89,99,9.1,CN,1659646081
430,Messina,38.1933,15.5497,82.6,65,0,3.44,IT,1659645980
431,Storforshei,66.4043,14.5233,55.18,87,75,4.61,NO,1659646082
432,Taoudenni,22.6783,-3.9836,100.96,22,37,6.67,ML,1659646082
433,Nome,64.5011,-165.4064,53.17,82,100,0,US,1659646083
434,Ankara,39.9199,32.8543,74.21,76,75,14.97,TR,1659646083
435,Kapoeta,4.7717,33.5903,77.31,65,88,4.61,SS,1659646083
436,Agüimes,27.9054,-15.4461,71.65,73,20,28.77,ES,1659646084
437,Betanzos,43.2804,-8.2147,70.45,82,75,9.22,ES,1659646084
438,Mbanza-Ngungu,-5.25,14.8667,74.32,54,0,7.45,CD,1659645494
439,Mglin,53.0591,32.8475,63.36,96,68,6.96,RU,1659646085
440,Ozinki,51.1786,49.6769,73.76,40,45,8.97,RU,1659646085
441,Deep River,46.1001,-77.4995,85.95,43,4,10.13,CA,1659646085
442,Acajutla,13.5928,-89.8275,83.68,70,97,4.59,SV,1659646086
443,Cabo San Lucas,22.8909,-109.9124,93.61,72,1,1.99,MX,1659646009
444,Mogadishu,2.0371,45.3438,76.01,84,58,19.15,SO,1659645502
445,Tyrma,50.0833,132.1667,66.78,94,100,7.4,RU,1659646087
446,Port-Gentil,-0.7193,8.7815,74.25,76,90,17.16,GA,1659646087
447,Rybachiy,48.7073,44.7449,78.66,36,76,9.28,RU,1659646087
448,Pacific Grove,36.6177,-121.9166,83.34,73,0,10,US,1659646088
449,East Foothills,37.3811,-121.8175,97.05,37,40,6.91,US,1659646088
450,Bonthe,7.5264,-12.505,76.73,86,98,9.37,SL,1659646088
451,Zhalantun,48,122.7167,66.13,83,24,14.47,CN,1659646089
452,Ambulu,-8.345,113.6058,69.53,90,4,4.32,ID,1659646089
453,Listvyanskiy,54.4399,83.4984,50.45,73,6,1.79,RU,1659646089
454,Inírida,3.8653,-67.9239,85.53,65,48,1.81,CO,1659646090
455,Cumana,10.4635,-64.1775,79.16,86,98,10.89,VE,1659646090
456,Camacha,33.0833,-16.3333,67.42,88,75,13.8,PT,1659646090
457,Chimoré,-16.9833,-65.1333,73.8,88,85,4.94,BO,1659646091
458,Lodwar,3.1191,35.5973,83.79,42,85,18.32,KE,1659646091
459,Hemnesberget,66.2333,13.6333,56.12,92,99,2.48,NO,1659646092
460,Miandrivazo,-19.5167,45.4667,70.52,76,19,2.35,MG,1659646092
461,Matamoros,25.5333,-103.25,98.35,20,6,6.42,MX,1659646092
462,Port Shepstone,-30.7414,30.455,64.96,83,29,7.76,ZA,1659646093
463,Black River,18.0264,-77.8487,85.5,65,99,12.91,JM,1659646093
464,Lavrentiya,65.5833,-171,49.84,89,97,8.39,RU,1659646093
465,Antalaha,-14.9003,50.2788,65.35,85,7,7.18,MG,1659646093
466,Arrondissement de Bastia,42.6667,9.3333,82.29,68,0,4.61,FR,1659646094
467,Malpe,13.35,74.7167,74.5,90,100,13.91,IN,1659646094
468,Chissamba,-12.1667,17.3333,72.9,37,97,1.83,AO,1659646095
469,Cauayan,9.9718,122.6249,78.55,81,100,4.36,PH,1659646095
470,Nemuro,43.3236,145.575,58.1,85,100,10.09,JP,1659646095
471,Shitkino,56.3703,98.3543,49.86,97,100,6.35,RU,1659646096
472,Tommot,58.9564,126.2925,64.83,97,100,1.68,RU,1659646096
473,Taos,36.4072,-105.5731,87.21,43,0,12.66,US,1659646096
474,Necochea,-38.5473,-58.7368,47.59,72,0,5.64,AR,1659646097
475,Timizart,36.8,4.2667,77.18,67,0,4.7,DZ,1659646097
476,Kousséri,12.0769,15.0306,84.16,65,20,4.61,CM,1659646097
477,Novobirilyussy,56.9514,90.6661,44.94,96,82,6.93,RU,1659646098
478,Malakal,9.5334,31.6605,72.46,91,99,4.79,SS,1659645814
479,Srandakan,-7.9386,110.2506,72.41,89,51,3.91,ID,1659646098
480,Abu Samrah,35.3029,37.1841,85.66,38,0,6.26,SY,1659646099
481,Capinópolis,-18.6819,-49.5697,82.72,26,39,1.7,BR,1659646099
482,Bilibino,68.0546,166.4372,48.24,80,100,5.32,RU,1659646100
483,Poya,-21.35,165.15,73.67,85,23,3.89,NC,1659646100
484,Madang,-5.2246,145.7966,76.24,92,100,3.58,PG,1659646100
485,Kavieng,-2.5744,150.7967,82.2,76,100,12.8,PG,1659646101
486,Alofi,-19.0595,-169.9187,78.69,69,40,11.5,NU,1659646101
487,Shanting,35.0753,117.4578,79.81,88,0,3.36,CN,1659646101
488,Loandjili,-4.7561,11.8578,68.85,89,15,8.84,CG,1659646102
489,Buala,-8.145,159.5921,81.59,72,59,7.94,SB,1659645508
490,Zhigansk,66.7697,123.3711,48.18,60,100,21.41,RU,1659646102
491,Illapel,-31.6308,-71.1653,62.85,51,0,4.92,CL,1659646104
492,Los Llanos de Aridane,28.6585,-17.9182,72.12,86,75,18.41,ES,1659646104
493,Hambantota,6.1241,81.1185,78.96,77,100,20.27,LK,1659646104
494,Yarmouth,41.7057,-70.2286,87.96,80,75,17.27,US,1659646105
495,Enshi,30.3,109.4833,73.67,96,17,0.4,CN,1659646105
496,Fukuechō,32.6881,128.8419,82.85,82,68,13.09,JP,1659646106
497,Kiryat Gat,31.61,34.7642,83.39,100,0,5.1,IL,1659646106
498,Olyka,50.7186,25.8125,68.94,66,95,4.83,UA,1659646106
499,Labuhan,-6.8844,112.2051,73.74,84,3,9.17,ID,1659646107
500,Charters Towers,-20.1,146.2667,60.87,96,23,6.87,AU,1659646107
501,Karatau,43.1667,70.4667,70.39,51,12,4.03,KZ,1659646107
502,Barra dos Coqueiros,-10.9089,-37.0386,78.82,69,20,10.36,BR,1659646108
503,Forsytheganj,52.6333,29.7333,64.31,91,5,7.05,BY,1659646108
504,Yaan,7.3833,8.5667,73.78,85,86,5.06,NG,1659646108
505,Khawhai,23.3667,93.1167,61.39,100,100,0.47,IN,1659646109
506,Norman Wells,65.282,-126.8329,73.44,40,40,6.91,CA,1659645815
507,Broken Hill,-31.95,141.4333,47.62,57,0,10.47,AU,1659646109
508,Petropavlovsk-Kamchatskiy,53.0452,158.6483,55.99,88,0,6.71,RU,1659646110
509,Magadan,59.5667,150.8,56.53,94,100,8.14,RU,1659646110
510,Abatskiy,56.2875,70.4555,58.98,80,84,3.51,RU,1659646110
511,Havelock,34.8791,-76.9013,89.58,75,0,14.97,US,1659645256
512,Tigzirt,36.8886,4.1198,79.18,78,0,8.14,DZ,1659646111
513,De Aar,-30.6497,24.0123,55.24,53,1,4.34,ZA,1659646111
514,Trenggalek,-8.05,111.7167,70.79,94,63,2.37,ID,1659646111
515,East Wenatchee Bench,47.4257,-120.2812,79.97,32,0,9.22,US,1659646112
516,Progreso,21.2833,-89.6667,94.1,69,6,16.64,MX,1659646112
517,Arzachena,41.0769,9.3887,80.04,70,0,4.76,IT,1659646112
518,Olinda,-8.0089,-34.8553,78.53,73,75,14.97,BR,1659646113
519,Pitimbu,-7.4706,-34.8086,79.39,79,3,11.83,BR,1659646113
520,Pinyug,60.251,47.7842,65.88,79,100,1.43,RU,1659646113
521,Port Lincoln,-34.7333,135.8667,52.57,80,55,14.63,AU,1659646113
522,Hualmay,-11.0964,-77.6139,65.71,72,38,11.99,PE,1659645551
523,Port Hardy,50.6996,-127.4199,60.98,72,75,10.36,CA,1659646114
524,Atikokan,48.7555,-91.6216,78.12,32,5,5.66,CA,1659646114
525,Gornopravdinsk,60.05,69.9,58.84,73,38,4.47,RU,1659646115
526,Barra de Tecoanapa,16.5167,-98.75,86.43,65,10,9.86,MX,1659646115
527,Lata,40.1629,-8.3327,66.81,95,55,2.42,PT,1659646115
528,Bela,25.9333,81.9833,82.87,80,99,6.33,IN,1659646116
529,Rio Grande,-32.035,-52.0986,55.51,96,99,21.59,BR,1659646116
530,Saint-François,46.4154,3.9054,76.44,61,100,2.3,FR,1659646116
531,Korla,41.7597,86.1469,81.79,34,1,3.4,CN,1659646117
532,Dossor,47.5272,52.9811,85.41,25,86,14.03,KZ,1659646117
533,Beringovskiy,63.05,179.3167,56.32,57,0,5.32,RU,1659646117
534,Manaus,-3.1019,-60.025,91.9,55,40,8.05,BR,1659646118
535,Nantucket,41.2835,-70.0995,84.31,89,75,11.5,US,1659645832
536,Ardabil,38.2498,48.2933,65.75,52,0,4.61,IR,1659646118
537,Larsnes,62.2028,5.5773,55,85,65,10.38,NO,1659646119
538,San Felipe,10.3399,-68.7425,79,89,100,4.36,VE,1659646119
539,Moose Factory,51.2585,-80.6094,69.8,43,75,11.5,CA,1659646119
540,Ferrol,43.4832,-8.2369,68.52,89,100,17.85,ES,1659646047
541,Lajoskomárom,46.842,18.3376,79.48,38,0,2.33,HU,1659646120
542,Moranbah,-22.0016,148.0466,61.72,81,0,5.3,AU,1659646120
543,Snyder,32.7179,-100.9176,104.09,23,40,10.36,US,1659646120
544,Monrovia,6.3005,-10.7969,74.97,82,100,11.23,LR,1659646121
545,Ponnāni,10.767,75.9252,72.72,93,100,19.46,IN,1659646121
546,Shenkursk,62.1091,42.896,61.75,76,98,4.97,RU,1659646121
547,Nizhnevartovsk,60.9344,76.5531,59.02,100,82,0,RU,1659646122
548,Stockelsdorf,53.8905,10.6258,70.99,96,20,3.44,DE,1659646122
549,Kaka,37.3482,59.6143,83.53,20,0,3.58,TM,1659646122
550,Kruisfontein,-34.0033,24.7314,52.23,91,71,4.47,ZA,1659646123
551,Vaitape,-16.5167,-151.75,77.38,78,45,25.39,PF,1659646123
552,Matara,5.9485,80.5353,77.94,82,100,16.28,LK,1659646123
553,Eyemouth,55.8713,-2.0901,56.23,69,63,13.58,GB,1659646124
554,Batagay,67.6333,134.6333,50.11,70,100,1.92,RU,1659646124
555,La Tuque,47.4334,-72.7824,82.65,61,100,8.05,CA,1659645964
556,Cuamba,-14.8031,36.5372,71.26,49,91,1.81,MZ,1659646124
557,Carlyle,38.6103,-89.3726,86.99,77,78,5.01,US,1659645918
558,Quatre Cocos,-20.2078,57.7625,69.91,71,19,16.35,MU,1659646125
559,Marabba,12.35,32.1833,81.75,66,93,11.92,SD,1659646126
560,Praia,14.9215,-23.5087,79.34,73,75,12.66,CV,1659646127
561,Xinxiang,35.3089,113.8672,82.18,76,0,3.96,CN,1659646127
562,Vestmannaeyjar,63.4427,-20.2734,53.29,73,3,19.48,IS,1659646127
563,Mogapi,-22.323,27.8349,62.42,53,0,2.75,BW,1659646127
564,Moyale,3.5167,39.0584,68.47,59,100,14.61,KE,1659646128
565,Fuerte Olimpo,-21.0415,-57.8738,78.1,56,61,9.53,PY,1659646128
566,Boden,65.8252,21.6886,62.6,89,69,4.61,SE,1659646128
567,Stornoway,58.2093,-6.3865,52.93,83,20,3.44,GB,1659646129
568,Yatou,37.15,122.3833,77.81,96,4,6.82,CN,1659646129
569,Qui Nhon,13.7667,109.2333,79.75,80,100,5.19,VN,1659646129
